City_ID,City,Lat,Lng,Max Temp,Humidity,Cloudiness,Wind Speed,Country,Date
0,puerto baquerizo moreno,-0.9,-89.6,299.7,74,75,4.12,EC,1696269152
1,wenchang,30.904,118.4887,293.07,80,98,1.56,CN,1696269152
2,adamstown,-25.066,-130.1015,293.41,73,22,10.89,PN,1696269142
3,ushuaia,-54.8,-68.3,280.94,45,0,4.12,AR,1696269070
4,port hedland,-20.3167,118.5667,294.18,94,8,2.06,AU,1696268854
5,jamestown,42.097,-79.2353,299.83,53,0,1.54,US,1696268973
6,linda,39.1277,-121.5508,296.25,55,0,1.54,US,1696269153
7,port lincoln,-34.7333,135.8667,286.29,72,57,5.61,AU,1696269153
8,shahpur,16.7,76.8333,297.19,78,96,3.54,IN,1696269153
9,niamey,13.5137,2.1098,304.31,51,20,2.06,NE,1696269116
10,ozernyy,55.5802,32.4127,284.15,72,80,1.6,RU,1696269153
11,edinburgh of the seven seas,-37.0676,-12.3116,282.74,55,83,11.7,SH,1696269145
12,port-aux-francais,-49.35,70.2167,274.61,61,100,14.51,TF,1696269153
13,vieux fort,13.7167,-60.95,304.04,80,75,7.2,LC,1696269153
14,geraldton,-28.7667,114.6,288.38,63,100,2.57,AU,1696269153
15,queenstown,-31.8976,26.8753,293.89,23,0,2.54,ZA,1696269153
16,port mathurin,-19.6833,63.4167,296.73,86,70,7.28,MU,1696269153
17,matao,-21.6033,-48.3658,303.4,49,66,2.9,BR,1696269153
18,rundu,-17.9333,19.7667,299.68,33,67,2.61,NA,1696269153
19,udachny,66.4167,112.4,267.29,85,13,2.55,RU,1696269153
20,poronaysk,49.2167,143.1167,283.87,90,100,6.75,RU,1696269153
21,bethel,41.3712,-73.414,298.5,62,40,1.54,US,1696268949
22,port saint john's,-31.6229,29.5448,291.83,75,0,7.93,ZA,1696269154
23,tiksi,71.6872,128.8694,270.44,80,100,4.67,RU,1696269142
24,yellowknife,62.456,-114.3525,280.6,100,75,2.06,CA,1696269149
25,antsiranana,-12.2787,49.2917,297.53,82,85,4.05,MG,1696269154
26,enewetak,11.3474,162.3373,302.12,78,98,6.8,MH,1696269154
27,ravar,31.2656,56.8055,297.27,16,0,1.26,IR,1696269154
28,kingston,17.997,-76.7936,308.28,59,20,2.06,JM,1696269154
29,grytviken,-54.2811,-36.5092,275.88,96,100,5.95,GS,1696269147
30,vorgashor,67.5833,63.95,276.51,92,100,7.84,RU,1696269154
31,bom jesus,-9.0744,-44.3586,315.58,11,22,1.42,BR,1696269154
32,hilo,19.7297,-155.09,298.49,89,20,3.09,US,1696269154
33,waitangi,-43.9535,-176.5597,283.61,87,99,3.13,NZ,1696269154
34,mil'kovo,55.6078,37.7956,285.42,58,83,3.25,RU,1696269154
35,fale old settlement,-9.3852,-171.2468,301.33,74,62,4.64,TK,1696269151
36,college,64.8569,-147.8028,274.51,92,100,3.09,US,1696269046
37,atafu village,-8.5421,-172.5159,301.2,74,19,0.83,TK,1696269154
38,polyarnyy,69.1989,33.4478,276.04,71,90,5.34,RU,1696269154
39,tralee,52.2704,-9.7026,288.29,82,40,3.6,IE,1696269154
40,vilyuchinsk,52.9306,158.4028,282.0,86,100,9.86,RU,1696269155
41,saipan,15.1355,145.701,301.54,89,40,3.6,MP,1696269138
42,ingeniero luis a. huergo,-39.0833,-67.2333,296.66,18,50,7.6,AR,1696269155
43,lompoc,34.6391,-120.4579,295.84,75,20,1.79,US,1696269155
44,punta arenas,-53.15,-70.9167,281.21,49,75,5.66,CL,1696268960
45,bocana de paiwas,12.7857,-85.1227,303.37,70,65,2.87,NI,1696269155
46,chongwe,-15.3292,28.682,298.47,40,0,4.98,ZM,1696269155
47,sil-li,39.4947,125.4736,288.23,69,100,1.79,KP,1696269155
48,longyearbyen,78.2186,15.6401,270.06,74,75,9.77,SJ,1696269155
49,tofol,5.3248,163.0078,301.51,72,22,0.46,FM,1696269155
50,albany,42.6001,-73.9662,298.11,49,15,1.34,US,1696268913
51,hadibu,12.65,54.0333,300.53,79,62,1.82,YE,1696269155
52,iqaluit,63.7506,-68.5145,279.0,65,75,5.14,CA,1696269144
53,thompson,55.7435,-97.8558,278.24,87,100,3.09,CA,1696269023
54,saldanha,-33.0117,17.9442,291.18,82,0,6.64,ZA,1696269155
55,arraial do cabo,-22.9661,-42.0278,296.07,83,75,3.09,BR,1696269155
56,santa elena de uairen,4.6167,-61.1333,304.27,28,83,3.59,VE,1696269155
57,tittmoning,48.0667,12.7667,292.32,88,45,0.61,DE,1696269155
58,alice springs,-23.7,133.8833,301.9,20,57,6.17,AU,1696269155
59,bredasdorp,-34.5322,20.0403,287.83,68,0,1.29,ZA,1696269156
60,susuman,62.7833,148.1667,271.47,82,11,1.34,RU,1696269156
61,whitehorse,60.7161,-135.0538,279.58,83,20,6.71,CA,1696269156
62,cabo san lucas,22.8909,-109.9124,306.76,52,4,3.13,MX,1696268952
63,ghanzi,-21.5667,21.7833,299.95,27,1,5.64,BW,1696269156
64,santiago,-33.4569,-70.6483,289.59,58,75,2.06,CL,1696269045
65,avarua,-21.2078,-159.775,294.18,78,75,5.14,CK,1696269156
66,margaret river,-33.95,115.0667,286.12,62,100,7.81,AU,1696269156
67,goure,13.9835,10.2704,300.37,46,100,5.36,NE,1696269156
68,peterhead,57.5058,-1.7981,286.73,76,100,6.43,GB,1696269156
69,mount isa,-20.7333,139.5,288.02,41,0,0.0,AU,1696269156
70,jabat,7.75,168.9751,301.26,78,35,2.48,MH,1696269156
71,mabaruma,8.2,-59.7833,310.13,37,98,2.98,GY,1696269156
72,kuanda,56.3161,116.0806,268.94,83,42,0.22,RU,1696269156
73,stanley,54.868,-1.6985,285.24,89,20,1.54,GB,1696269146
74,ketchikan,55.3422,-131.6461,285.41,87,100,4.12,US,1696269156
75,rauma,61.1272,21.5113,284.17,95,100,4.89,FI,1696269156
76,ola,59.5833,151.2833,279.49,79,34,4.28,RU,1696269156
77,namibe,-15.1961,12.1522,292.12,79,5,0.68,AO,1696269156
78,tidjikja,18.5564,-11.4271,310.8,11,43,2.55,MR,1696269157
79,kargasok,59.0556,80.8572,280.35,92,24,4.47,RU,1696269157
80,magadan,59.5667,150.8,279.16,77,14,3.13,RU,1696269157
81,doka,13.5167,35.7667,300.06,60,1,2.32,SD,1696269157
82,edeia,-17.3383,-49.9314,309.35,27,26,3.71,BR,1696269157
83,blackmans bay,-43.0167,147.3167,284.11,67,18,4.42,AU,1696269141
84,codrington,-38.2667,141.9667,287.5,91,80,6.76,AU,1696269157
85,uliastay,47.7417,96.8444,274.69,79,5,1.11,MN,1696269157
86,bubaque,11.2833,-15.8333,302.68,71,100,2.98,GW,1696269157
87,bilibino,68.0546,166.4372,264.79,98,99,1.14,RU,1696269146
88,ivnya,51.0629,36.1343,287.12,45,99,2.39,RU,1696269157
89,mundri,-6.9558,111.71,298.56,69,92,3.24,ID,1696269157
90,blackwater,-23.5833,148.8833,290.2,100,9,3.68,AU,1696269157
91,lampang,18.3333,99.5,298.86,85,47,0.37,TH,1696269157
92,wagar,16.1525,36.2032,309.35,14,0,2.79,SD,1696269157
93,al qusiyah,27.4402,30.8184,300.3,34,100,4.61,EG,1696269157
94,okhotsk,59.3833,143.3,279.33,77,23,3.44,RU,1696269157
95,tsiombe,-25.3,45.4833,292.12,58,98,5.43,MG,1696269158
96,qamdo,31.1667,97.2333,278.61,68,16,2.11,CN,1696269158
97,flying fish cove,-10.4217,105.6791,296.97,83,75,5.14,CX,1696269158
98,papatowai,-46.5619,169.4708,276.03,79,43,3.04,NZ,1696269158
99,lihue,21.9789,-159.3672,296.13,85,0,3.6,US,1696268907
100,gafsa,34.425,8.7842,301.27,36,20,3.09,TN,1696269158
101,isafjordur,66.0755,-23.124,277.17,70,75,6.17,IS,1696269158
102,abashiri,44.0213,144.2697,284.16,84,34,5.77,JP,1696269158
103,caraballeda,10.6112,-66.8522,309.47,49,54,0.71,VE,1696269158
104,san clemente del tuyu,-36.3569,-56.7235,287.03,72,43,3.67,AR,1696269158
105,nyurba,63.2842,118.3319,272.06,75,98,2.24,RU,1696269158
106,cariamanga,-4.3333,-79.55,298.58,44,41,3.3,EC,1696269158
107,port elizabeth,-33.918,25.5701,295.43,87,0,3.09,ZA,1696268984
108,cox's bazar,21.4532,91.9798,298.0,93,44,4.67,BD,1696269158
109,lorengau,-2.0226,147.2712,299.8,81,97,3.31,PG,1696269158
110,myory,55.6217,27.6299,284.1,77,98,3.04,BY,1696269158
111,callao,-12.0667,-77.15,294.31,73,75,3.09,PE,1696269158
112,port alfred,-33.5906,26.891,291.58,85,0,0.89,ZA,1696269158
113,selogiri,-7.7833,110.8667,295.71,88,81,1.97,ID,1696269159
114,saint-pierre,-21.3393,55.4781,296.97,73,100,1.03,RE,1696269159
115,guajara mirim,-10.7828,-65.3394,309.24,41,40,3.6,BR,1696268872
116,naze,28.3667,129.4833,298.66,79,83,9.27,JP,1696269159
117,ilulissat,69.2167,-51.1,272.16,59,0,2.57,GL,1696269159
118,paita,-5.0892,-81.1144,297.13,66,25,6.81,PE,1696269159
119,georgetown,5.4112,100.3354,301.45,84,20,1.54,MY,1696269146
120,tomatlan,19.9333,-105.25,305.49,63,84,1.72,MX,1696269159
121,constantia,44.1833,28.65,289.65,44,6,5.06,RO,1696269159
122,bemidji,47.4736,-94.8803,302.07,48,0,5.66,US,1696269159
123,zheleznogorsk-ilimskiy,56.5768,104.1217,275.02,58,100,3.58,RU,1696269159
124,newman,37.3138,-121.0208,295.96,49,4,1.79,US,1696269159
125,alvaraes,-3.2208,-64.8042,308.08,24,98,2.37,BR,1696269159
126,sao felix do xingu,-6.6447,-51.995,314.3,17,68,2.38,BR,1696269159
127,gadzhiyevo,69.2551,33.3362,275.8,71,93,5.71,RU,1696269159
128,ottappalam,10.7667,76.3833,297.62,97,46,1.04,IN,1696269159
129,trondheim,63.4305,10.3951,284.22,91,100,1.38,NO,1696269159
130,khovd,48.0056,91.6419,279.24,65,13,0.41,MN,1696269160
131,mahonda,-6.45,39.4667,298.95,82,55,7.79,TZ,1696269160
132,keflavik,64.0049,-22.5624,281.1,76,75,11.32,IS,1696269160
133,kampene,-3.6,26.6667,298.45,65,97,0.49,CD,1696269160
134,invercargill,-46.4,168.35,274.83,90,12,1.34,NZ,1696269043
135,bhuban,20.8833,85.8333,299.21,86,92,0.38,IN,1696269160
136,bel ombre,-4.6167,55.4167,301.06,78,20,7.2,SC,1696269160
137,nadym,65.5333,72.5167,283.26,86,100,7.94,RU,1696269160
138,vadso,70.0744,29.7487,275.64,80,75,3.6,NO,1696269160
139,las amilpas,16.3667,-94.6167,307.33,51,98,1.05,MX,1696269160
140,kavieng,-2.5744,150.7967,300.3,80,61,2.28,PG,1696269160
141,kulhudhuffushi,6.6221,73.07,300.1,83,98,7.48,MV,1696269160
142,la passe,45.5549,-0.8967,301.28,83,11,4.02,FR,1696269160
143,carnarvon,-24.8667,113.6333,290.34,62,0,11.55,AU,1696269160
144,aitape,-3.1374,142.3475,298.16,91,93,2.06,PG,1696269160
145,lodja,-3.4833,23.4333,297.36,73,87,0.69,CD,1696269160
146,kapuskasing,49.4169,-82.4331,297.2,69,75,6.69,CA,1696269160
147,long beach,33.767,-118.1892,295.75,70,0,1.79,US,1696268938
148,saynshand,44.8824,110.1163,283.73,51,3,5.87,MN,1696269161
149,calingasta,-31.3308,-69.4078,300.52,7,69,12.0,AR,1696269161
150,moroto,2.5345,34.6666,297.57,52,89,3.96,UG,1696269161
151,anadyr,64.75,177.4833,271.43,100,0,5.0,RU,1696269161
152,uturoa,-16.7333,-151.4333,299.34,80,11,7.26,PF,1696269161
153,ko lanta,7.5336,99.0865,300.77,79,100,5.14,TH,1696269161
154,lebu,-37.6167,-73.65,284.44,84,88,2.97,CL,1696269161
155,kasongo-lunda,-6.4667,16.8167,295.64,88,35,3.95,CD,1696269161
156,zemetchino,53.4973,42.6163,285.06,81,100,2.2,RU,1696269161
157,winnemucca,40.973,-117.7357,282.18,71,100,3.09,US,1696269050
158,rajaori,33.3833,74.3,292.0,40,0,2.84,IN,1696269161
159,bua yai,15.5855,102.4259,298.12,91,61,2.16,TH,1696269161
160,baskil,38.5679,38.8238,287.06,54,67,0.8,TR,1696269161
161,kalmunai,7.4167,81.8167,298.58,88,71,7.22,LK,1696269161
162,bahia de kino,28.8333,-111.9333,302.44,47,31,3.24,MX,1696269161
163,conde,-7.2597,-34.9075,302.85,54,40,4.63,BR,1696269161
164,hawaiian paradise park,19.5933,-154.9731,297.06,92,20,3.09,US,1696269162
165,paysandu,-32.3214,-58.0756,294.6,42,14,3.99,UY,1696269162
166,shingu,33.7333,135.9833,289.34,67,66,2.77,JP,1696269162
167,puerto natales,-51.7236,-72.4875,283.4,53,75,7.2,CL,1696269162
168,pokhara,28.2333,83.9833,294.9,83,100,2.35,NP,1696269162
169,phan rang-thap cham,11.5667,108.9833,297.87,91,100,1.58,VN,1696269162
170,santa ana,33.7456,-117.8678,295.29,60,20,2.24,US,1696269162
171,kodiak,57.79,-152.4072,279.88,57,0,9.26,US,1696269162
172,puerto ayora,-0.7393,-90.3518,299.13,95,93,3.58,EC,1696269162
173,ribeira grande,38.5167,-28.7,295.37,60,20,5.36,PT,1696269141
174,east ballina,-28.8667,153.5833,288.04,85,0,4.16,AU,1696269162
175,gisborne,-38.6533,178.0042,281.99,78,70,7.18,NZ,1696269162
176,bikenibeu village,1.3673,173.1241,302.13,79,20,2.06,KI,1696269162
177,nehe,48.4833,124.8333,282.44,64,69,2.63,CN,1696269162
178,navia,43.5354,-6.7194,292.75,88,47,0.8,ES,1696269162
179,utrik,11.2278,169.8474,301.75,79,54,6.93,MH,1696269162
180,kristiansund,63.1115,7.732,284.51,71,40,3.6,NO,1696269162
181,radviliskis,55.8167,23.5333,286.18,88,40,3.09,LT,1696269162
182,sitka,57.0531,-135.33,284.09,87,100,3.09,US,1696268874
183,afua,-0.1567,-50.3867,305.83,51,83,3.67,BR,1696269163
184,faaa,-17.55,-149.6,299.13,78,75,2.06,PF,1696269163
185,wailua homesteads,22.0669,-159.378,295.79,89,0,3.6,US,1696269157
186,montepuez,-13.1256,38.9997,297.88,50,14,4.74,MZ,1696269163
187,zaysan,47.4667,84.8667,284.68,59,32,1.66,KZ,1696269163
188,si chiang mai,17.9564,102.5867,297.35,94,20,1.03,TH,1696269163
189,pare,-7.7679,112.198,295.22,85,95,2.81,ID,1696269163
190,olonkinbyen,70.9221,-8.7187,275.85,92,100,8.82,SJ,1696269163
191,riviere-du-loup,47.8304,-69.5342,292.3,63,53,2.06,CA,1696269163
192,horta,38.5333,-28.6333,294.95,71,20,5.36,PT,1696269163
193,prokuplje,43.2342,21.5881,289.75,56,2,1.79,RS,1696269163
194,mantua,45.1667,10.7833,299.68,71,8,1.13,IT,1696269163
195,robertsport,6.7533,-11.3686,300.11,81,71,4.36,LR,1696269163
196,fortuna,40.5982,-124.1573,289.22,84,0,1.54,US,1696269163
197,xichang,27.8964,102.2634,292.9,91,38,0.66,CN,1696269163
198,evinayong,1.4368,10.5512,294.71,99,43,1.25,GQ,1696269163
199,taroa,8.7058,171.2275,301.48,78,98,6.55,MH,1696269163
200,hithadhoo,-0.6,73.0833,301.15,74,35,5.86,MV,1696269164
201,basco,20.4487,121.9702,301.04,78,100,15.13,PH,1696269164
202,pisco,-13.7,-76.2167,294.18,73,0,4.63,PE,1696269164
203,kaufman,32.589,-96.3089,306.56,52,12,4.07,US,1696269164
204,umm ruwaba,12.9061,31.2158,307.26,30,30,5.59,SD,1696269164
205,ta`u,-14.2336,-169.5144,299.87,80,92,11.32,AS,1696269164
206,mhamid,29.82,-5.72,304.06,17,91,4.43,MA,1696269164
207,west island,-12.1568,96.8225,298.14,78,75,8.75,CC,1696269164
208,ancud,-41.8697,-73.8203,283.01,59,23,3.03,CL,1696269164
209,parabel',58.6978,81.4825,280.32,91,17,3.58,RU,1696269164
210,kerikeri,-35.2268,173.9474,283.66,92,53,0.45,NZ,1696269164
211,korsakov,46.6328,142.7813,285.58,84,83,5.81,RU,1696269164
212,laguna,38.421,-121.4238,296.09,62,0,0.45,US,1696269164
213,kruisfontein,-34.0033,24.7314,294.2,48,0,1.18,ZA,1696269164
214,laojunmiao,39.8333,97.7333,285.26,38,88,1.94,CN,1696269164
215,essex junction,44.4906,-73.111,297.25,64,40,2.06,US,1696269165
216,rapid city,44.0805,-103.231,294.76,70,75,3.58,US,1696269165
217,crane,31.3974,-102.3501,302.11,48,51,9.27,US,1696269165
218,necochea,-38.5473,-58.7368,290.56,56,92,5.79,AR,1696269165
219,zhezqazghan,47.7833,67.7667,284.18,66,53,4.65,KZ,1696269165
220,tucuma,-0.1833,-50.05,305.31,53,80,4.7,BR,1696269165
221,taoudenni,22.6783,-3.9836,312.66,12,78,1.33,ML,1696269165
222,barra de santo antonio,-9.4047,-35.5072,302.75,64,2,4.82,BR,1696269165
223,petropavlovsk-kamchatsky,53.0452,158.6483,281.18,93,100,6.71,RU,1696269155
224,kaspiyskiy,45.3929,47.3707,294.25,65,97,4.92,RU,1696269165
225,ust-nera,64.5667,143.2,271.6,81,31,0.89,RU,1696269165
226,masterton,-40.9597,175.6575,280.31,67,99,5.54,NZ,1696269165
227,recani,31.2846,-4.2688,303.35,18,54,1.6,MA,1696269165
228,tolanaro,-25.0319,46.9987,293.19,68,75,7.2,MG,1696269165
229,tura,25.5198,90.2201,296.45,97,66,1.97,IN,1696269165
230,perros-guirec,48.8145,-3.4396,292.42,81,0,6.17,FR,1696269165
231,mitu,1.1983,-70.1733,310.03,35,83,1.12,CO,1696269165
232,gazli,40.1333,63.45,292.58,28,0,3.41,UZ,1696269165
233,acarau,-2.8856,-40.12,303.79,60,77,8.52,BR,1696269166
234,tabuk,17.4189,121.4443,296.92,92,100,0.78,PH,1696269166
235,axim,4.8699,-2.2405,299.12,84,36,3.55,GH,1696269166
236,afaahiti,-17.75,-149.2833,298.08,87,79,8.14,PF,1696269147
237,ataq,14.5377,46.8319,297.38,65,0,4.83,YE,1696269166
238,bayana,26.9,77.2833,299.87,29,16,1.14,IN,1696269166
239,siwa oasis,29.2041,25.5195,301.35,30,86,3.1,EG,1696269166
240,lively,46.4334,-81.1498,297.05,62,17,5.21,CA,1696269166
241,paka,4.6374,103.4368,297.11,94,100,4.12,MY,1696269166
242,la ronge,55.1001,-105.2842,280.29,76,100,4.12,CA,1696269166
243,derzhavinsk,51.1,66.3167,284.5,60,7,3.27,KZ,1696269166
244,dudinka,69.4058,86.1778,271.3,96,100,10.28,RU,1696269103
245,rurrenabaque,-14.4413,-67.5278,308.98,52,40,4.12,BO,1696269166
246,hasaki,35.7333,140.8333,290.37,52,48,4.61,JP,1696269166
247,les sables-d'olonne,46.6667,-1.8333,294.59,90,67,4.1,FR,1696269167
248,pasni,25.2631,63.471,300.64,72,0,4.84,PK,1696269167
249,hotan,37.0997,79.9269,292.09,18,99,2.3,CN,1696269167
250,haapsalu,58.9431,23.5414,288.66,88,92,6.83,EE,1696269167
251,lubumbashi,-11.6609,27.4794,300.61,21,23,4.74,CD,1696269167
252,sona,45.4388,10.8255,298.42,64,0,1.54,IT,1696269167
253,kuqa,41.7278,82.9364,292.51,31,72,1.73,CN,1696269167
254,sant lluis,39.8526,4.2594,296.37,83,20,2.06,ES,1696269167
255,irymple,-34.25,142.1667,294.87,67,92,0.45,AU,1696269167
256,talnakh,69.4865,88.3972,270.49,93,100,8.23,RU,1696269167
257,lagunas,-5.2269,-75.6753,312.32,30,66,1.46,PE,1696269167
258,remire-montjoly,4.9167,-52.2667,306.17,55,40,6.69,GF,1696269167
259,saint-philippe,-21.3585,55.7679,296.92,82,51,2.32,RE,1696269167
260,tazovsky,67.4667,78.7,280.47,98,100,6.86,RU,1696269167
261,ugoofaaru,5.6667,73.0,299.89,83,100,5.57,MV,1696269167
262,nacogdoches,31.6002,-94.6335,304.16,46,0,3.09,US,1696269167
263,gwadar,25.1216,62.3254,301.35,70,0,4.07,PK,1696269167
264,buala,-8.145,159.5921,299.69,88,100,2.2,SB,1696269168
265,peace river,56.2501,-117.286,283.32,76,75,3.6,CA,1696269168
266,tregunc,47.85,-3.85,291.48,92,87,5.16,FR,1696269168
267,hirara,24.8,125.2833,302.07,94,100,7.72,JP,1696269168
268,pontes e lacerda,-15.2261,-59.3353,312.46,24,69,3.39,BR,1696269168
269,sinabang,2.4803,96.3801,299.91,77,94,5.26,ID,1696269168
270,colonia,50.9333,6.95,297.02,59,0,3.09,DE,1696268947
271,kindu,-2.95,25.95,299.33,65,91,1.8,CD,1696269168
272,palmer,42.1584,-72.3287,297.67,55,40,2.57,US,1696269132
273,brigantine,39.4101,-74.3646,299.37,71,0,4.12,US,1696269168
274,manadhoo,5.7667,73.3833,299.93,83,94,5.82,MV,1696269168
275,suntar,62.1444,117.6319,273.22,74,99,1.79,RU,1696269168
276,east wenatchee bench,47.4257,-120.2812,290.55,58,0,3.09,US,1696269168
277,daru,-9.0763,143.2092,297.82,86,57,4.77,PG,1696269162
278,ouadda,8.0777,22.4007,293.79,88,90,1.08,CF,1696269168
279,nar'yan-mar,67.6713,53.087,277.1,78,95,9.39,RU,1696269168
280,vila velha,-20.3297,-40.2925,301.12,85,20,3.13,BR,1696269168
281,mariana,-20.3778,-43.4161,301.96,52,96,1.34,BR,1696269169
282,buulobarde,3.8538,45.5674,300.26,63,64,9.39,SO,1696269169
283,rongelap,11.1635,166.8941,301.66,79,99,5.32,MH,1696269169
284,iskateley,67.6803,53.1512,277.05,78,95,9.39,RU,1696269169
285,skowhegan,44.7651,-69.7192,296.1,37,1,0.55,US,1696269169
286,vorkuta,67.5,64.0,277.01,91,100,7.76,RU,1696269079
287,choibalsan,48.0667,114.5,279.98,65,100,6.3,MN,1696269169
288,lusambo,-4.9667,23.45,298.15,66,91,1.05,CD,1696269169
289,alofi,-19.0595,-169.9187,295.09,68,100,7.2,NU,1696269169
290,birjand,32.8663,59.2211,291.41,13,0,3.09,IR,1696269169
291,kudahuvadhoo,2.6708,72.8944,301.39,77,97,5.78,MV,1696269169
292,datong,40.0936,113.2914,285.98,63,10,2.04,CN,1696269169
293,pullman,46.7313,-117.1796,289.73,65,20,4.02,US,1696269169
294,newport beach,33.6189,-117.9289,295.48,64,20,1.54,US,1696269169
295,cambria,35.5641,-121.0808,294.81,59,3,1.82,US,1696269169
296,sao miguel,-5.4667,-35.3667,303.58,59,40,7.36,BR,1696269169
297,vernon,50.2581,-119.2691,286.82,76,76,2.06,CA,1696269170
298,sinop,41.7711,34.8709,287.09,87,71,2.67,TR,1696268917
299,bowie,33.4501,-94.4335,304.09,52,5,3.81,US,1696268913
300,verdal,63.7933,11.4817,283.17,87,100,1.53,NO,1696269170
301,novodvinsk,64.4165,40.8122,279.14,75,26,0.83,RU,1696269170
302,kununurra,-15.7667,128.7333,298.14,78,69,4.12,AU,1696269170
303,kuta,-8.7233,115.1723,298.15,100,40,2.24,ID,1696269170
304,gebeit,21.0667,36.3167,303.1,44,29,1.99,SD,1696269170
305,haiku-pauwela,20.9219,-156.3051,299.84,79,0,0.0,US,1696269170
306,island harbour,50.724,-1.2758,292.19,93,100,2.68,GB,1696269170
307,kolonia town,6.964,158.206,302.02,72,16,1.63,FM,1696269170
308,gilgit,35.9221,74.3087,292.17,50,66,0.27,PK,1696269170
309,mar del plata,-38.0023,-57.5575,289.0,84,0,6.17,AR,1696269170
310,hereford,52.0568,-2.7148,290.4,95,100,2.33,GB,1696269170
311,mugia,43.1041,-9.2179,295.46,88,99,3.47,ES,1696269170
312,urangan,-25.3,152.9,293.13,73,1,3.07,AU,1696269170
313,tapa,59.2606,25.9586,285.18,78,93,3.29,EE,1696269170
314,shimoda,34.6667,138.95,292.1,75,63,4.62,JP,1696269171
315,aasiaat,68.7098,-52.8699,270.38,62,1,5.51,GL,1696269171
316,mount gambier,-37.8333,140.7667,285.72,96,100,3.26,AU,1696269171
317,klyuchi,52.2667,79.1667,279.2,49,2,3.25,RU,1696269171
318,ormara,25.2088,64.6357,300.75,77,1,4.98,PK,1696269171
319,walvis bay,-22.9575,14.5053,289.68,82,22,5.14,NA,1696269171
320,gordonvale,-17.0936,145.7842,295.03,98,70,1.63,AU,1696269171
321,ciudad lazaro cardenas,17.9583,-102.2,304.59,67,95,3.16,MX,1696269171
322,harar,9.3094,42.1258,291.66,58,36,1.24,ET,1696269171
323,bowen,-20.0167,148.2333,293.01,91,7,4.17,AU,1696269171
324,ishigaki,24.3448,124.1572,300.22,94,75,7.2,JP,1696269171
325,kiunga,-6.1219,141.2906,296.35,99,100,0.16,PG,1696269171
326,reyes,-14.3167,-67.3833,309.13,46,40,4.12,BO,1696269171
327,novogornyy,55.63,60.7919,285.46,73,100,2.64,RU,1696269171
328,podporozh'ye,60.9112,34.1706,281.19,92,98,1.41,RU,1696269172
329,vondrozo,-22.8167,47.2833,289.68,86,84,4.14,MG,1696269172
330,santana,-0.0583,-51.1817,307.25,49,40,6.69,BR,1696269004
331,guarapari,-20.6667,-40.4975,298.09,84,88,1.97,BR,1696269172
332,hami,42.8,93.45,291.25,30,80,2.46,CN,1696269172
333,coquimbo,-29.9533,-71.3436,290.0,63,75,5.66,CL,1696269172
334,ypsonas,34.6884,32.9574,296.69,73,20,1.54,CY,1696269172
335,sandnessjoen,66.0217,12.6316,283.38,87,75,4.63,NO,1696269172
336,mana,5.6592,-53.7767,303.88,65,98,6.7,GF,1696269172
337,zastavna,48.5231,25.8437,286.55,58,7,1.43,UA,1696269172
338,karratha,-20.7377,116.8463,298.33,28,2,3.85,AU,1696269172
339,fada,9.5667,8.3,295.06,93,91,0.77,NG,1696269172
340,katsuura,35.1333,140.3,294.4,63,40,2.99,JP,1696269172
341,kismayo,-0.3582,42.5454,298.91,85,6,6.11,SO,1696269172
342,hinton,53.4001,-117.5857,285.62,61,83,2.28,CA,1696269172
343,bardai,11.65,7.2333,296.94,82,97,2.46,NG,1696269172
344,villa gesell,-37.2639,-56.973,288.18,71,19,6.9,AR,1696269172
345,guerrero negro,27.9769,-114.0611,294.35,53,20,7.54,MX,1696269157
346,imperatriz,-5.5264,-47.4917,309.18,44,40,1.03,BR,1696269025
347,cuito,-12.3833,16.9333,294.86,50,96,1.65,AO,1696269173
348,weno,7.4515,151.8468,299.12,94,75,1.54,FM,1696269173
349,saint-joseph,-21.3667,55.6167,296.36,83,45,1.7,RE,1696269173
350,nantucket,41.2835,-70.0995,294.23,81,0,10.8,US,1696269173
351,tocopilla,-22.092,-70.1979,293.6,71,17,4.95,CL,1696269173
352,nemuro,43.3236,145.575,287.16,73,8,9.4,JP,1696269173
353,novoagansk,61.9449,76.6625,282.68,83,99,6.19,RU,1696269173
354,fada n'gourma,12.0622,0.3578,301.54,65,91,3.35,BF,1696269173
355,hovd,48.0056,91.6419,279.24,65,13,0.41,MN,1696269173
356,strelka,58.0728,93.0344,277.63,96,100,2.52,RU,1696269173
357,fruitland,38.3221,-75.6202,300.18,61,0,3.6,US,1696269173
358,ambatofinandrahana,-20.55,46.8,291.39,71,41,2.54,MG,1696269173
359,ortigueira,-24.2083,-50.9494,300.92,50,69,3.06,BR,1696269173
360,melekeok village,7.4957,134.6367,299.46,89,75,0.0,PW,1696269173
361,rabaul,-4.1967,152.1721,299.19,84,90,3.16,PG,1696269173
362,holualoa,19.6228,-155.9522,298.03,79,40,2.24,US,1696269128
363,likiep,9.8251,169.3107,301.54,80,53,6.38,MH,1696269173
364,didwana,27.4,74.5667,300.91,26,2,1.82,IN,1696269174
365,plastun,44.7561,136.2939,287.09,75,55,3.55,RU,1696269174
366,howard springs,-12.497,131.047,299.1,82,21,1.32,AU,1696269174
367,carauari,-4.8828,-66.8958,312.98,26,67,1.62,BR,1696269174
368,san antonio de pale,-1.4014,5.6325,298.31,86,100,5.98,GQ,1696269174
369,richards bay,-28.783,32.0377,291.32,56,0,6.15,ZA,1696269174
370,chui,-33.6971,-53.4616,290.14,64,0,2.56,UY,1696269174
371,nuku'alofa,-21.1333,-175.2,292.34,88,75,5.66,TO,1696269174
372,motueka,-41.1333,173.0167,279.87,85,55,2.61,NZ,1696269174
373,orange walk,17.8333,-88.8333,307.93,46,43,1.71,BZ,1696269174
374,cova figueira,14.8905,-24.2934,298.27,75,94,3.75,CV,1696269174
375,black river,18.0264,-77.8487,305.59,62,21,3.19,JM,1696269174
376,margate,51.3813,1.3862,292.76,91,97,0.89,GB,1696269174
377,xiazhuang,34.9161,118.6389,291.3,72,100,1.33,CN,1696269174
378,gogrial,8.5332,28.1004,296.01,91,91,1.61,SS,1696269174
379,paracuru,-3.41,-39.0306,300.99,61,78,6.65,BR,1696269174
380,kawant,22.1,74.05,297.32,76,10,1.85,IN,1696269174
381,norton,-17.8833,30.7,293.86,62,33,5.07,ZW,1696269175
382,kalimpong,27.0667,88.4833,293.98,94,100,1.81,IN,1696269175
383,lyantonde,-0.4031,31.1572,293.93,77,39,0.74,UG,1696269175
384,coxen hole,16.3244,-86.5366,303.75,79,20,3.09,HN,1696269175
385,tarrafal de sao nicolau,16.5667,-24.3667,299.49,83,57,5.05,CV,1696269175
386,mandaguacu,-23.3472,-52.0953,304.93,48,40,3.09,BR,1696269175
387,barentu,15.1139,37.5928,301.56,26,2,3.72,ER,1696269175
388,egilsstadir,65.2653,-14.3948,279.1,100,100,10.8,IS,1696269175
389,chernyshevsk,52.5243,117.0174,277.43,86,43,1.47,RU,1696269175
390,la'ie,21.6477,-157.9253,300.13,84,24,1.34,US,1696269175
391,sisimiut,66.9395,-53.6735,276.47,61,92,1.07,GL,1696269169
392,tilisarao,-32.7329,-65.2911,301.7,20,80,6.96,AR,1696269175
393,chonchi,-42.6128,-73.8092,285.71,62,40,0.6,CL,1696269175
394,auki,-8.7676,160.7034,298.56,92,58,2.14,SB,1696269175
395,tara,56.8944,74.371,282.58,78,8,3.13,RU,1696269175
396,jayapura,-2.5333,140.7,296.81,88,71,2.38,ID,1696269175
397,las palmas,28.4204,-14.0131,297.59,78,0,6.69,ES,1696269120
398,pathein,16.7833,94.7333,297.09,98,100,2.13,MM,1696269176
399,leticia,-4.2153,-69.9406,306.18,62,75,3.09,CO,1696269176
400,bakchar,57.0186,82.0711,277.91,95,31,2.65,RU,1696269176
401,yeppoon,-23.1333,150.7333,292.03,81,0,5.15,AU,1696269176
402,thunder bay,48.4001,-89.3168,296.1,68,40,3.09,CA,1696269176
403,balatonboglar,46.7752,17.6441,292.25,60,11,1.89,HU,1696269176
404,puerto aysen,-45.4,-72.7,281.55,87,100,1.55,CL,1696269176
405,yeed,4.55,43.0333,305.68,36,77,4.73,SO,1696269176
406,suez,29.9737,32.5263,298.61,48,100,4.44,EG,1696269176
407,gaiman,-43.2897,-65.4929,290.98,28,79,8.28,AR,1696269176
408,shihezi,44.3,86.0333,290.34,38,17,2.39,CN,1696269176
409,zabaykal'sk,49.6333,117.3167,282.04,69,100,4.88,RU,1696269176
410,onega,63.9061,38.1404,277.72,89,35,2.26,RU,1696269176
411,mazatlan,23.2167,-106.4167,306.43,67,40,1.79,MX,1696269003
412,itoman,26.1247,127.6694,300.58,96,100,6.17,JP,1696269176
413,galliano,29.4422,-90.2992,303.71,62,75,4.63,US,1696269176
414,mapleton,40.1302,-111.5785,283.14,86,100,6.17,US,1696269086
415,amga,60.8953,131.9608,280.36,79,100,1.34,RU,1696269176
416,ribeira brava,32.65,-17.0667,299.66,79,4,2.26,PT,1696269177
417,nuuk,64.1835,-51.7216,276.49,81,75,3.09,GL,1696269177
418,kaiapoi,-43.3783,172.6401,279.3,79,100,8.23,NZ,1696269177
419,dubbo,-32.25,148.6167,291.22,52,64,4.12,AU,1696269177
420,cabedelo,-6.9811,-34.8339,303.52,64,79,5.75,BR,1696268915
421,al ghayzah,16.2079,52.176,300.15,76,2,3.58,YE,1696269177
422,suomussalmi,64.8869,28.9078,279.24,97,100,2.0,FI,1696269177
423,bechar,31.6167,-2.2167,304.33,16,0,1.54,DZ,1696269177
424,novaya igirma,57.1334,103.9112,272.34,96,100,2.75,RU,1696269177
425,dickinson,29.4608,-95.0513,306.56,60,0,6.17,US,1696269069
426,kovdor,67.5662,30.4758,273.8,72,93,1.83,RU,1696269177
427,chivhu,-19.0211,30.8922,286.52,83,73,5.5,ZW,1696269177
428,nogliki,51.8333,143.1667,283.9,96,100,11.18,RU,1696269177
429,vila franca do campo,37.7167,-25.4333,295.86,99,100,4.44,PT,1696269177
430,bonthe,7.5264,-12.505,300.39,79,100,3.78,SL,1696269177
431,broome,42.2506,-75.833,298.64,73,75,2.06,US,1696269177
432,hamilton,39.1834,-84.5333,302.73,49,0,2.57,US,1696268905
433,portland,45.5234,-122.6762,288.21,75,100,2.57,US,1696269027
434,ouddorp,51.8117,3.9347,295.36,77,100,2.26,NL,1696269177
435,roma,43.2128,-75.4557,297.57,74,14,0.45,US,1696269178
436,thinadhoo,0.5333,72.9333,301.24,75,86,4.96,MV,1696269178
437,okha,53.5739,142.9478,281.18,94,100,9.65,RU,1696269178
438,cesvaine,56.9667,26.3167,284.5,76,99,2.32,LV,1696269178
439,abaza,52.655,90.0928,277.21,84,31,1.74,RU,1696269178
440,el fasher,13.6279,25.3494,305.28,35,57,5.91,SD,1696269178
441,ilha de mocambique,-15.0342,40.7358,299.05,80,1,5.88,MZ,1696269178
442,urengoy,65.9667,78.3667,278.77,99,100,5.36,RU,1696269178
443,qaqortoq,60.7167,-46.0333,279.65,49,100,1.53,GL,1696269148
444,san rafael del yuma,18.4299,-68.6739,305.26,68,97,5.15,DO,1696269178
445,huambo,-12.7761,15.7392,297.82,39,86,3.39,AO,1696269178
446,revda,56.801,59.9303,284.22,81,100,4.69,RU,1696269178
447,coahuayana de hidalgo,18.7,-103.6583,305.53,64,95,1.73,MX,1696269178
448,luderitz,-26.6481,15.1594,290.21,72,0,3.75,NA,1696269178
449,ardakan,32.31,54.0175,299.23,15,9,3.36,IR,1696269178
450,sonepur,20.8333,83.9167,297.98,93,95,1.81,IN,1696269178
451,udhampur,32.9333,75.1333,293.1,63,0,3.33,IN,1696269179
452,nishinoomote,30.7333,131.0,297.94,70,53,7.19,JP,1696269179
453,kill devil hills,36.0307,-75.676,299.15,70,0,6.17,US,1696269179
454,jiwani,25.05,61.7417,301.76,70,0,4.23,PK,1696269179
455,ebon,4.582,168.6964,301.68,75,2,2.03,MH,1696269179
456,lowestoft,52.4752,1.7516,290.94,93,100,5.33,GB,1696269179
457,n'zeto,-7.2312,12.8666,297.46,87,25,4.16,AO,1696269179
458,mukalla,14.5425,49.1242,301.54,71,10,2.12,YE,1696269179
459,lycksele,64.5954,18.6735,279.08,93,75,2.57,SE,1696269179
460,bermejo,-32.8833,-68.8,297.1,25,75,6.69,AR,1696269179
461,ribadesella,43.4614,-5.0596,295.34,79,40,1.71,ES,1696269179
462,jos,9.9167,8.9,293.35,88,86,1.66,NG,1696269179
463,zaozersk,69.4005,32.4476,275.22,78,95,4.76,RU,1696269179
464,tatarsk,55.219,75.9828,281.46,52,6,2.68,RU,1696269179
465,mulanur,10.7667,77.7167,299.0,73,24,6.19,IN,1696269179
466,ban chang,12.7254,101.0553,299.92,89,20,1.03,TH,1696269179
467,havre,49.5833,0.3333,299.02,53,0,4.12,FR,1696269180
468,beylikova,39.6869,31.2056,288.83,67,73,2.94,TR,1696269180
469,yamazakicho-nakabirose,35.0,134.55,289.45,73,59,2.53,JP,1696269180
470,swidnik,51.219,22.6962,287.42,74,0,3.13,PL,1696269180
471,neijiang,29.5835,105.0622,292.07,93,100,1.7,CN,1696269180
472,sur,22.5667,59.5289,302.5,60,30,1.57,OM,1696269180
473,phongsali,21.6833,102.1058,289.69,99,45,0.25,LA,1696269180
474,puerto armuelles,8.2833,-82.8667,305.14,72,100,0.45,PA,1696269180
475,bulancak,40.9372,38.2291,294.05,64,75,6.69,TR,1696269180
476,remetea,46.7833,25.45,282.7,72,6,0.97,RO,1696269180
477,hammerfest,70.6634,23.6821,274.4,86,75,0.0,NO,1696269180
478,dawson creek,55.7666,-120.2362,283.95,66,0,4.63,CA,1696269180
479,chinde,26.8418,88.0763,292.04,88,97,2.04,NP,1696269180
480,ponta delgada,37.7333,-25.6667,296.03,64,20,5.66,PT,1696269180
481,mahdia,35.5047,11.0622,297.12,64,0,3.06,TN,1696269180
482,abepura,-2.6333,140.5833,296.6,100,100,0.51,ID,1696269180
483,tafuna,-14.3358,-170.72,300.12,89,100,9.26,AS,1696269180
484,rice lake,45.5061,-91.7382,301.33,57,0,4.63,US,1696269096
485,vostochnyy,55.8167,37.8667,286.13,54,90,2.88,RU,1696269181
486,nicoya,10.1483,-85.452,303.45,71,99,0.73,CR,1696269087
487,nizhneudinsk,54.9076,99.0276,277.05,71,100,0.89,RU,1696269181
488,st. john's,47.5649,-52.7093,289.97,83,40,2.06,CA,1696268908
489,nguigmi,14.2495,13.1092,302.25,44,100,9.83,NE,1696269181
490,warrnambool,-38.3833,142.4833,289.33,81,77,8.66,AU,1696269181
491,nouadhibou,20.931,-17.0347,301.14,51,0,6.69,MR,1696269181
492,celestun,20.8667,-90.4,304.68,61,43,3.78,MX,1696269181
493,kingscliff,-28.2667,153.5667,291.04,77,3,3.09,AU,1696269181
494,gazipasa,36.2694,32.3179,297.2,69,40,1.03,TR,1696269181
495,sampit,-2.5333,112.95,296.33,89,98,0.12,ID,1696269181
496,mulanje,-16.0316,35.5,294.41,85,74,5.17,MW,1696269181
497,keetmanshoop,-26.5833,18.1333,306.66,8,0,2.06,NA,1696269181
498,aptos,36.9772,-121.8994,296.12,75,100,1.54,US,1696269181
499,mata-utu,-13.2816,-176.1745,300.06,80,95,11.65,WF,1696269181
500,nueva gerona,21.8833,-82.8,303.59,65,18,4.56,CU,1696269181
501,bodo,67.28,14.405,281.17,79,75,4.12,NO,1696269182
502,churachandpur,24.3333,93.6667,292.47,99,34,0.83,IN,1696269182
503,krasnokholmskiy,55.9873,55.0466,289.39,64,100,4.18,RU,1696269182
504,olavarria,-36.8927,-60.3225,294.19,31,87,5.31,AR,1696269182
505,kirensk,57.7853,108.1119,275.38,61,100,4.92,RU,1696269182
506,mwene-ditu,-7.0,23.45,296.03,63,83,0.83,CD,1696269182
507,san andres,12.5847,-81.7006,304.16,74,40,2.06,CO,1696269182
508,badger,64.8,-147.5333,274.46,93,100,3.09,US,1696269146
509,mawu,29.5923,107.3139,292.64,98,100,0.51,CN,1696269182
510,grand falls-windsor,48.9332,-55.6649,290.56,40,22,2.82,CA,1696269182
511,porto novo,6.4965,2.6036,302.05,80,54,3.16,BJ,1696269152
512,castillos,-34.1667,-53.8333,290.25,65,4,2.38,UY,1696269182
513,santa cruz,-17.8,-63.1667,308.18,38,20,10.29,BO,1696269057
514,dingli,35.8614,14.3822,296.38,73,20,2.57,MT,1696269183
515,lodwar,3.1191,35.5973,306.53,30,50,7.98,KE,1696269183
516,lospalos,-8.5186,127.0025,295.02,95,71,1.62,TL,1696269183
517,druskininkai,54.0167,23.9667,287.6,69,100,2.46,LT,1696269183
518,peiting,47.8,10.9333,290.78,82,41,1.53,DE,1696269183
519,nueve de julio,-35.4444,-60.8831,295.91,32,100,0.89,AR,1696269183
520,baiti,13.745,-14.7482,305.77,62,55,2.53,SN,1696269183
521,dunedin,-45.8742,170.5036,279.15,80,80,1.34,NZ,1696269183
522,albertina,-22.2008,-46.6158,299.07,62,81,3.75,BR,1696269183
523,mendi,-6.1761,143.6513,286.91,98,100,0.38,PG,1696269183
524,cockburn town,21.4612,-71.1419,304.13,62,20,3.6,TC,1696269183
525,ankazobe,-18.3167,47.1167,295.36,59,98,2.53,MG,1696269184
526,yamada,39.4667,141.95,287.25,79,35,2.43,JP,1696269184
527,izyum,49.2088,37.2485,287.71,58,93,4.1,UA,1696269184
528,mombasa,-4.0547,39.6636,299.38,78,20,3.6,KE,1696269184
529,bima,-8.4667,118.7167,296.64,94,68,1.63,ID,1696269184
530,ballina,-28.8667,153.5667,288.03,87,0,3.72,AU,1696269184
531,gobabis,-22.45,18.9667,300.08,14,15,5.08,NA,1696269184
532,saint-francois,46.4154,3.9054,295.19,68,0,1.03,FR,1696269184
533,figuig (centre),32.1089,-1.2286,300.56,22,0,3.42,MA,1696269184
534,naracoorte,-36.9579,140.7383,287.03,97,96,4.66,AU,1696269184
535,pemangkat,1.1667,108.9667,299.07,85,83,3.61,ID,1696269184
536,nova olimpia,-14.7972,-57.2881,312.8,24,62,2.56,BR,1696269184
537,macapa,0.0389,-51.0664,307.14,49,40,6.69,BR,1696269184
538,labasa,-16.4167,179.3833,295.72,86,99,4.2,FJ,1696269184
539,pionerskiy,54.9508,20.2275,291.01,86,100,7.42,RU,1696269185
540,kez,57.8979,53.7152,283.07,80,100,2.0,RU,1696269185
541,ar ruways,24.1103,52.7306,304.43,65,2,5.23,AE,1696269185
542,oxapampa,-10.5775,-75.4017,295.37,78,57,1.68,PE,1696269185
543,sangin,32.0728,64.8359,294.28,12,0,0.89,AF,1696269185
544,broomfield,39.9205,-105.0866,298.1,40,0,3.13,US,1696268821
545,sao jose da coroa grande,-8.8978,-35.1478,299.85,64,4,4.39,BR,1696269185
546,mongagua,-24.0931,-46.6208,294.63,81,100,2.48,BR,1696269185
547,new norfolk,-42.7826,147.0587,284.77,71,18,1.9,AU,1696269177
548,gejiu,23.306,103.1635,286.69,97,62,1.35,CN,1696269185
549,san luis de la loma,17.2706,-100.8939,304.39,64,94,2.75,MX,1696269185
550,san juan de uraba,8.7592,-76.5297,303.41,72,98,4.38,CO,1696269185
551,dalnerechensk,45.9339,133.7225,280.49,87,7,2.68,RU,1696269185
552,baise city,23.8997,106.6133,297.63,86,63,0.37,CN,1696269186
553,kapa'a,22.0752,-159.319,296.54,89,0,3.6,US,1696269186
554,severo-yeniseyskiy,60.3725,93.0408,270.14,87,98,3.58,RU,1696269186
555,kogalym,62.2654,74.4791,283.04,81,100,9.37,RU,1696269186
556,lascano,-33.6667,-54.2,292.41,53,0,1.89,UY,1696269186
557,belel,7.05,14.4333,291.05,93,100,0.75,CM,1696269186
558,ostersund,63.1792,14.6357,281.4,87,0,2.06,SE,1696269186
559,albox,37.3886,-2.1495,298.89,46,6,1.88,ES,1696269186
